{"type": "FeatureCollection", "features": [{"type": "Feature", "id": 0, "geometry": {"type": "Point", "coordinates": [22.257, 43.91]}, "properties": {"name": "", "fuel": "unknown", "mw": 0.0, "country": "SRB", "status": "operating"}}, {"type": "Feature", "id": 1, "geometry": {"type": "Point", "coordinates": [20.137, 39.917]}, "properties": {"name": "Bistrica 1 Power Station", "fuel": "hydro", "mw": 22.5, "country": "ALB", "status": "operating"}}, {"type": "Feature", "id": 2, "geometry": {"type": "Point", "coordinates": [19.327, 43.334]}, "properties": {"name": "Pljevlja Power Station", "fuel": "coal", "mw": 210.0, "country": "MNE", "status": "operating"}}, {"type": "Feature", "id": 3, "geometry": {"type": "Point", "coordinates": [19.058, 43.719]}, "properties": {"name": "Brana MHE Ustipra\u010da", "fuel": "hydro", "mw": 0.0, "country": "BIH", "status": "operating"}}, {"type": "Feature", "id": 4, "geometry": {"type": "Point", "coordinates": [19.046, 43.719]}, "properties": {"name": "MHE Dub", "fuel": "hydro", "mw": 9.4, "country": "BIH", "status": "operating"}}, {"type": "Feature", "id": 5, "geometry": {"type": "Point", "coordinates": [17.675, 43.746]}, "properties": {"name": "HE Rama ma\u0161inska hala", "fuel": "hydro", "mw": 160.0, "country": "BIH", "status": "operating"}}, {"type": "Feature", "id": 6, "geometry": {"type": "Point", "coordinates": [19.003, 43.748]}, "properties": {"name": "Brana MHE Dub", "fuel": "hydro", "mw": 0.0, "country": "BIH", "status": "operating"}}, {"type": "Feature", "id": 7, "geometry": {"type": "Point", "coordinates": [18.98, 43.752]}, "properties": {"name": "HE Mesi\u0107i \"Slavi\u0161a Vajner \u010ci\u010da\"", "fuel": "unknown", "mw": 0.0, "country": "BIH", "status": "operating"}}, {"type": "Feature", "id": 8, "geometry": {"type": "Point", "coordinates": [18.981, 43.753]}, "properties": {"name": "MHE Mesi\u0107i-Nova", "fuel": "hydro", "mw": 5.0, "country": "BIH", "status": "operating"}}, {"type": "Feature", "id": 9, "geometry": {"type": "Point", "coordinates": [18.967, 43.759]}, "properties": {"name": "", "fuel": "hydro", "mw": 0.0, "country": "BIH", "status": "operating"}}, {"type": "Feature", "id": 10, "geometry": {"type": "Point", "coordinates": [18.864, 43.761]}, "properties": {"name": "MHE Kaljani", "fuel": "hydro", "mw": 1.4, "country": "BIH", "status": "operating"}}, {"type": "Feature", "id": 11, "geometry": {"type": "Point", "coordinates": [18.575, 43.814]}, "properties": {"name": "Gradska toplana Pale", "fuel": "unknown", "mw": 0.0, "country": "BIH", "status": "operating"}}, {"type": "Feature", "id": 12, "geometry": {"type": "Point", "coordinates": [20.186, 43.899]}, "properties": {"name": "\u0425\u0415 \u041e\u0432\u0447\u0430\u0440 \u0411\u0430\u045a\u0430", "fuel": "hydro", "mw": 8.0, "country": "SRB", "status": "operating"}}, {"type": "Feature", "id": 13, "geometry": {"type": "Point", "coordinates": [20.232, 43.909]}, "properties": {"name": "\u0425\u0415 \u041c\u0435\u0452\u0443\u0432\u0440\u0448\u0458\u0435", "fuel": "hydro", "mw": 9.0, "country": "SRB", "status": "operating"}}, {"type": "Feature", "id": 14, "geometry": {"type": "Point", "coordinates": [19.412, 43.962]}, "properties": {"name": "\u0420\u0425\u0415 \u0411\u0430\u0458\u0438\u043d\u0430 \u0411\u0430\u0448\u0442\u0430", "fuel": "hydro", "mw": 614.0, "country": "BIH", "status": "operating"}}, {"type": "Feature", "id": 15, "geometry": {"type": "Point", "coordinates": [19.41, 43.964]}, "properties": {"name": "\u0425\u0415 \u0411\u0430\u0458\u0438\u043d\u0430 \u0411\u0430\u0448\u0442\u0430", "fuel": "hydro", "mw": 420.0, "country": "BIH", "status": "operating"}}, {"type": "Feature", "id": 16, "geometry": {"type": "Point", "coordinates": [18.365, 43.85]}, "properties": {"name": "Alipa\u0161in most", "fuel": "unknown", "mw": 0.0, "country": "BIH", "status": "operating"}}, {"type": "Feature", "id": 17, "geometry": {"type": "Point", "coordinates": [20.347, 43.902]}, "properties": {"name": "", "fuel": "gas", "mw": 0.0, "country": "SRB", "status": "operating"}}, {"type": "Feature", "id": 18, "geometry": {"type": "Point", "coordinates": [18.455, 43.758]}, "properties": {"name": "MHE Podvi\u010d", "fuel": "hydro", "mw": 0.0, "country": "BIH", "status": "operating"}}, {"type": "Feature", "id": 19, "geometry": {"type": "Point", "coordinates": [20.086, 39.9]}, "properties": {"name": "", "fuel": "hydro", "mw": 0.0, "country": "ALB", "status": "operating"}}, {"type": "Feature", "id": 20, "geometry": {"type": "Point", "coordinates": [20.105, 39.912]}, "properties": {"name": "Bistrica 2 Power Station", "fuel": "hydro", "mw": 5.0, "country": "ALB", "status": "operating"}}, {"type": "Feature", "id": 21, "geometry": {"type": "Point", "coordinates": [19.407, 43.865]}, "properties": {"name": "\u0421\u043e\u043b\u0430\u0440\u043d\u0430 \u0435\u043b\u0435\u043a\u0442\u0440\u0430\u043d\u0430 \"\u0411\u0440\u0430\u043d\u0430 \u041b\u0430\u0437\u0438\u045b\u0438\"", "fuel": "solar", "mw": 0.0, "country": "BIH", "status": "operating"}}, {"type": "Feature", "id": 22, "geometry": {"type": "Point", "coordinates": [20.684, 43.719]}, "properties": {"name": "", "fuel": "unknown", "mw": 0.0, "country": "SRB", "status": "operating"}}, {"type": "Feature", "id": 23, "geometry": {"type": "Point", "coordinates": [18.408, 43.728]}, "properties": {"name": "", "fuel": "unknown", "mw": 0.0, "country": "BIH", "status": "operating"}}, {"type": "Feature", "id": 24, "geometry": {"type": "Point", "coordinates": [19.261, 44.077]}, "properties": {"name": "", "fuel": "hydro", "mw": 0.0, "country": "BIH", "status": "operating"}}, {"type": "Feature", "id": 25, "geometry": {"type": "Point", "coordinates": [17.828, 42.938]}, "properties": {"name": "Crpna hidroelektrana \u010capljina", "fuel": "hydro", "mw": 420.0, "country": "", "status": "operating"}}, {"type": "Feature", "id": 26, "geometry": {"type": "Point", "coordinates": [17.862, 43.344]}, "properties": {"name": "Vjetroelektrana Podvele\u017eje", "fuel": "wind", "mw": 48.0, "country": "BIH", "status": "operating"}}, {"type": "Feature", "id": 27, "geometry": {"type": "Point", "coordinates": [17.326, 43.379]}, "properties": {"name": "Solarna fotonaponska elektrana Krenica", "fuel": "solar", "mw": 0.0, "country": "", "status": "operating"}}, {"type": "Feature", "id": 28, "geometry": {"type": "Point", "coordinates": [17.764, 43.668]}, "properties": {"name": "Jablanica Hydroelectric Power Station", "fuel": "hydro", "mw": 180.0, "country": "BIH", "status": "operating"}}, {"type": "Feature", "id": 29, "geometry": {"type": "Point", "coordinates": [17.145, 43.751]}, "properties": {"name": "Vjetropark Jelova\u010da", "fuel": "wind", "mw": 36.0, "country": "BIH", "status": "operating"}}, {"type": "Feature", "id": 30, "geometry": {"type": "Point", "coordinates": [17.596, 43.781]}, "properties": {"name": "Rama Hydroelectric Power Station", "fuel": "hydro", "mw": 160.0, "country": "BIH", "status": "operating"}}, {"type": "Feature", "id": 31, "geometry": {"type": "Point", "coordinates": [16.915, 43.748]}, "properties": {"name": "Crpna stanica Lipa", "fuel": "unknown", "mw": 0.0, "country": "BIH", "status": "operating"}}, {"type": "Feature", "id": 32, "geometry": {"type": "Point", "coordinates": [17.675, 43.747]}, "properties": {"name": "HE Rama podzemna centrala", "fuel": "hydro", "mw": 160.0, "country": "BIH", "status": "operating"}}, {"type": "Feature", "id": 33, "geometry": {"type": "Point", "coordinates": [16.17, 44.845]}, "properties": {"name": "MHE Kru\u0161nica", "fuel": "hydro", "mw": 0.5, "country": "BIH", "status": "operating"}}, {"type": "Feature", "id": 34, "geometry": {"type": "Point", "coordinates": [17.135, 44.563]}, "properties": {"name": "MHE Bo\u010dac 2", "fuel": "hydro", "mw": 10.0, "country": "BIH", "status": "operating"}}, {"type": "Feature", "id": 35, "geometry": {"type": "Point", "coordinates": [17.161, 44.508]}, "properties": {"name": "HE Bo\u010dac", "fuel": "hydro", "mw": 110.0, "country": "BIH", "status": "operating"}}, {"type": "Feature", "id": 36, "geometry": {"type": "Point", "coordinates": [17.215, 44.768]}, "properties": {"name": "", "fuel": "biomass", "mw": 0.0, "country": "BIH", "status": "operating"}}, {"type": "Feature", "id": 37, "geometry": {"type": "Point", "coordinates": [17.24, 44.428]}, "properties": {"name": "HE Jajce 2", "fuel": "hydro", "mw": 30.0, "country": "BIH", "status": "operating"}}, {"type": "Feature", "id": 38, "geometry": {"type": "Point", "coordinates": [17.283, 44.377]}, "properties": {"name": "HE Jajce I", "fuel": "hydro", "mw": 60.0, "country": "BIH", "status": "operating"}}, {"type": "Feature", "id": 39, "geometry": {"type": "Point", "coordinates": [17.608, 44.415]}, "properties": {"name": "MHE Kru\u0161evo Brdo", "fuel": "hydro", "mw": 0.0, "country": "BIH", "status": "operating"}}, {"type": "Feature", "id": 40, "geometry": {"type": "Point", "coordinates": [17.791, 44.754]}, "properties": {"name": "Termoelektrana Stanari", "fuel": "coal", "mw": 300.0, "country": "BIH", "status": "operating"}}, {"type": "Feature", "id": 41, "geometry": {"type": "Point", "coordinates": [22.542, 44.554]}, "properties": {"name": "\u0421\u043e\u043b\u0430\u0440\u043d\u0438 \u043f\u0430\u0440\u043a \u041a\u043b\u0430\u0434\u043e\u0432\u043e", "fuel": "solar", "mw": 2.0, "country": "SRB", "status": "operating"}}, {"type": "Feature", "id": 42, "geometry": {"type": "Point", "coordinates": [18.181, 44.369]}, "properties": {"name": "", "fuel": "hydro", "mw": 0.0, "country": "BIH", "status": "operating"}}, {"type": "Feature", "id": 43, "geometry": {"type": "Point", "coordinates": [19.106, 44.368]}, "properties": {"name": "\u0425\u0415 \u0417\u0432\u043e\u0440\u043d\u0438\u043a", "fuel": "hydro", "mw": 126.0, "country": "BIH", "status": "operating"}}, {"type": "Feature", "id": 44, "geometry": {"type": "Point", "coordinates": [19.583, 45.643]}, "properties": {"name": "\u0412\u0435\u0442\u0440\u043e\u043f\u0430\u0440\u043a \u041a\u0443\u043b\u0430", "fuel": "wind", "mw": 9.9, "country": "SRB", "status": "operating"}}, {"type": "Feature", "id": 45, "geometry": {"type": "Point", "coordinates": [19.7, 45.202]}, "properties": {"name": "", "fuel": "solar", "mw": 1.0, "country": "SRB", "status": "operating"}}, {"type": "Feature", "id": 46, "geometry": {"type": "Point", "coordinates": [19.833, 45.266]}, "properties": {"name": "\u0422\u043e\u043f\u043b\u0430\u043d\u0430 \u201e\u0421\u0435\u0432\u0435\u0440\u201c", "fuel": "gas", "mw": 0.0, "country": "SRB", "status": "operating"}}, {"type": "Feature", "id": 47, "geometry": {"type": "Point", "coordinates": [19.839, 45.245]}, "properties": {"name": "", "fuel": "gas", "mw": 0.0, "country": "SRB", "status": "operating"}}, {"type": "Feature", "id": 48, "geometry": {"type": "Point", "coordinates": [19.851, 45.261]}, "properties": {"name": "\u0422\u043e\u043f\u043b\u0430\u043d\u0430 \u201e\u0418\u0441\u0442\u043e\u043a\u201c", "fuel": "gas", "mw": 0.0, "country": "SRB", "status": "operating"}}, {"type": "Feature", "id": 49, "geometry": {"type": "Point", "coordinates": [19.863, 45.232]}, "properties": {"name": "\u0422\u043e\u043f\u043b\u0430\u043d\u0430 \u041c\u0438\u0448\u0435\u043b\u0443\u043a", "fuel": "unknown", "mw": 0.0, "country": "SRB", "status": "operating"}}, {"type": "Feature", "id": 50, "geometry": {"type": "Point", "coordinates": [20.007, 44.653]}, "properties": {"name": "\u0422\u0435\u0440\u043c\u043e\u0435\u043b\u0435\u043a\u0442\u0440\u0430\u043d\u0430 \u041d\u0438\u043a\u043e\u043b\u0430 \u0422\u0435\u0441\u043b\u0430 \u0411", "fuel": "coal", "mw": 1300.0, "country": "SRB", "status": "operating"}}, {"type": "Feature", "id": 51, "geometry": {"type": "Point", "coordinates": [20.049, 45.138]}, "properties": {"name": "", "fuel": "solar", "mw": 0.0, "country": "SRB", "status": "operating"}}, {"type": "Feature", "id": 52, "geometry": {"type": "Point", "coordinates": [20.158, 44.671]}, "properties": {"name": "\u0422\u0435\u0440\u043c\u043e\u0435\u043b\u0435\u043a\u0442\u0440\u0430\u043d\u0430 \u041d\u0438\u043a\u043e\u043b\u0430 \u0422\u0435\u0441\u043b\u0430 \u0410", "fuel": "coal", "mw": 1765.5, "country": "SRB", "status": "operating"}}, {"type": "Feature", "id": 53, "geometry": {"type": "Point", "coordinates": [20.297, 44.48]}, "properties": {"name": "\u0422\u0435\u0440\u043c\u043e\u0435\u043b\u0435\u043a\u0442\u0440\u0430\u043d\u0430 \u041a\u043e\u043b\u0443\u0431\u0430\u0440\u0430", "fuel": "coal", "mw": 175.0, "country": "SRB", "status": "operating"}}, {"type": "Feature", "id": 54, "geometry": {"type": "Point", "coordinates": [20.417, 45.358]}, "properties": {"name": "\u0422\u0415-\u0422\u041e \u0417\u0440\u0435\u045a\u0430\u043d\u0438\u043d", "fuel": "gas", "mw": 120.0, "country": "SRB", "status": "operating"}}, {"type": "Feature", "id": 55, "geometry": {"type": "Point", "coordinates": [20.429, 44.572]}, "properties": {"name": "\u0422\u043e\u043f\u043b\u0430\u043d\u0430 \u201e\u0411\u0430\u0440\u0430\u0458\u0435\u0432\u043e\u201c", "fuel": "coal", "mw": 0.0, "country": "SRB", "status": "operating"}}, {"type": "Feature", "id": 56, "geometry": {"type": "Point", "coordinates": [20.694, 45.074]}, "properties": {"name": "\u0412\u0435\u0442\u0440\u043e\u043f\u0430\u0440\u043a \u041a\u043e\u0432\u0430\u0447\u0438\u0446\u0430", "fuel": "wind", "mw": 104.5, "country": "SRB", "status": "operating"}}, {"type": "Feature", "id": 57, "geometry": {"type": "Point", "coordinates": [20.587, 44.78]}, "properties": {"name": "Vinca Waste-to-Energy power station", "fuel": "waste", "mw": 32.2, "country": "SRB", "status": "operating"}}, {"type": "Feature", "id": 58, "geometry": {"type": "Point", "coordinates": [20.303, 44.81]}, "properties": {"name": "", "fuel": "solar", "mw": 1.0, "country": "SRB", "status": "operating"}}, {"type": "Feature", "id": 59, "geometry": {"type": "Point", "coordinates": [20.284, 45.833]}, "properties": {"name": "", "fuel": "solar", "mw": 0.0, "country": "SRB", "status": "operating"}}, {"type": "Feature", "id": 60, "geometry": {"type": "Point", "coordinates": [18.681, 44.54]}, "properties": {"name": "Solarna elektrana Panonika 1", "fuel": "solar", "mw": 0.0, "country": "BIH", "status": "operating"}}, {"type": "Feature", "id": 61, "geometry": {"type": "Point", "coordinates": [15.9, 44.884]}, "properties": {"name": "", "fuel": "hydro", "mw": 0.0, "country": "BIH", "status": "operating"}}, {"type": "Feature", "id": 62, "geometry": {"type": "Point", "coordinates": [16.898, 44.05]}, "properties": {"name": "", "fuel": "solar", "mw": 0.0, "country": "BIH", "status": "operating"}}, {"type": "Feature", "id": 63, "geometry": {"type": "Point", "coordinates": [16.931, 43.63]}, "properties": {"name": "Vjetroelektrana Kamensko", "fuel": "wind", "mw": 20.0, "country": "", "status": "operating"}}, {"type": "Feature", "id": 64, "geometry": {"type": "Point", "coordinates": [17.019, 43.813]}, "properties": {"name": "", "fuel": "solar", "mw": 0.0, "country": "BIH", "status": "operating"}}, {"type": "Feature", "id": 65, "geometry": {"type": "Point", "coordinates": [17.227, 43.611]}, "properties": {"name": "Vjetroelektrana Mesihovina", "fuel": "wind", "mw": 50.6, "country": "BIH", "status": "operating"}}, {"type": "Feature", "id": 66, "geometry": {"type": "Point", "coordinates": [17.215, 44.772]}, "properties": {"name": "Toplana Banjaluka a.d.", "fuel": "oil", "mw": 0.0, "country": "BIH", "status": "operating"}}, {"type": "Feature", "id": 67, "geometry": {"type": "Point", "coordinates": [17.216, 44.769]}, "properties": {"name": "", "fuel": "biomass", "mw": 0.0, "country": "BIH", "status": "operating"}}, {"type": "Feature", "id": 68, "geometry": {"type": "Point", "coordinates": [16.815, 44.071]}, "properties": {"name": "", "fuel": "solar", "mw": 0.0, "country": "BIH", "status": "operating"}}, {"type": "Feature", "id": 69, "geometry": {"type": "Point", "coordinates": [19.418, 46.091]}, "properties": {"name": "", "fuel": "solar", "mw": 0.0, "country": "SRB", "status": "operating"}}, {"type": "Feature", "id": 70, "geometry": {"type": "Point", "coordinates": [19.803, 45.27]}, "properties": {"name": "\u0422\u043e\u043f\u043b\u0430\u043d\u0430 \u041c\u0430\u0458\u0435\u0432\u0438\u0446\u0430", "fuel": "gas", "mw": 0.0, "country": "SRB", "status": "operating"}}, {"type": "Feature", "id": 71, "geometry": {"type": "Point", "coordinates": [17.647, 44.225]}, "properties": {"name": "", "fuel": "coal", "mw": 0.0, "country": "BIH", "status": "operating"}}, {"type": "Feature", "id": 72, "geometry": {"type": "Point", "coordinates": [17.719, 43.587]}, "properties": {"name": "Grabovica Hydroelectric Power Station", "fuel": "hydro", "mw": 114.0, "country": "BIH", "status": "operating"}}, {"type": "Feature", "id": 73, "geometry": {"type": "Point", "coordinates": [17.776, 44.165]}, "properties": {"name": "HE La\u0161va", "fuel": "hydro", "mw": 0.0, "country": "BIH", "status": "operating"}}, {"type": "Feature", "id": 74, "geometry": {"type": "Point", "coordinates": [17.837, 43.448]}, "properties": {"name": "Salakovac Hydroelectric Power Station", "fuel": "hydro", "mw": 210.0, "country": "BIH", "status": "operating"}}, {"type": "Feature", "id": 75, "geometry": {"type": "Point", "coordinates": [17.845, 43.377]}, "properties": {"name": "Mostar Hydroelectric Power Station", "fuel": "hydro", "mw": 72.0, "country": "BIH", "status": "operating"}}, {"type": "Feature", "id": 76, "geometry": {"type": "Point", "coordinates": [18.101, 43.939]}, "properties": {"name": "", "fuel": "solar", "mw": 0.0, "country": "BIH", "status": "operating"}}, {"type": "Feature", "id": 77, "geometry": {"type": "Point", "coordinates": [18.103, 43.939]}, "properties": {"name": "", "fuel": "solar", "mw": 0.0, "country": "BIH", "status": "operating"}}, {"type": "Feature", "id": 78, "geometry": {"type": "Point", "coordinates": [18.114, 44.096]}, "properties": {"name": "Termoelektrana Kakanj", "fuel": "coal", "mw": 450.0, "country": "BIH", "status": "operating"}}, {"type": "Feature", "id": 79, "geometry": {"type": "Point", "coordinates": [18.371, 43.851]}, "properties": {"name": "\u010cengi\u0107 Vila I", "fuel": "unknown", "mw": 0.0, "country": "BIH", "status": "operating"}}, {"type": "Feature", "id": 80, "geometry": {"type": "Point", "coordinates": [18.384, 43.853]}, "properties": {"name": "\u017divko Jo\u0161ilo", "fuel": "unknown", "mw": 0.0, "country": "BIH", "status": "operating"}}, {"type": "Feature", "id": 81, "geometry": {"type": "Point", "coordinates": [18.407, 43.727]}, "properties": {"name": "\u0425\u0415 \u0411\u043e\u0433\u0430\u0442\u0438\u045b\u0438-\u041d\u043e\u0432\u0430", "fuel": "hydro", "mw": 10.0, "country": "BIH", "status": "operating"}}, {"type": "Feature", "id": 82, "geometry": {"type": "Point", "coordinates": [18.497, 42.734]}, "properties": {"name": "Trebinje 1 Hydroelectric Power Station", "fuel": "hydro", "mw": 168.0, "country": "BIH", "status": "operating"}}, {"type": "Feature", "id": 83, "geometry": {"type": "Point", "coordinates": [18.511, 43.171]}, "properties": {"name": "Termoelektrana Gacko", "fuel": "coal", "mw": 300.0, "country": "BIH", "status": "operating"}}, {"type": "Feature", "id": 84, "geometry": {"type": "Point", "coordinates": [18.607, 44.52]}, "properties": {"name": "Termoelektrana Tuzla", "fuel": "coal", "mw": 723.0, "country": "BIH", "status": "operating"}}, {"type": "Feature", "id": 85, "geometry": {"type": "Point", "coordinates": [18.93, 44.603]}, "properties": {"name": "", "fuel": "solar", "mw": 0.0, "country": "BIH", "status": "operating"}}, {"type": "Feature", "id": 86, "geometry": {"type": "Point", "coordinates": [18.969, 44.683]}, "properties": {"name": "Termoelektrana Ugljevik", "fuel": "coal", "mw": 279.0, "country": "BIH", "status": "operating"}}, {"type": "Feature", "id": 87, "geometry": {"type": "Point", "coordinates": [19.085, 44.79]}, "properties": {"name": "FNE \"\u010ca\u0111avica\"", "fuel": "solar", "mw": 1.0, "country": "BIH", "status": "operating"}}, {"type": "Feature", "id": 88, "geometry": {"type": "Point", "coordinates": [19.113, 42.882]}, "properties": {"name": "Vjetroelektrana Krnovo", "fuel": "wind", "mw": 72.0, "country": "MNE", "status": "operating"}}, {"type": "Feature", "id": 89, "geometry": {"type": "Point", "coordinates": [19.2, 41.979]}, "properties": {"name": "Vjetroelektrana Mo\u017eura", "fuel": "wind", "mw": 46.0, "country": "MNE", "status": "operating"}}, {"type": "Feature", "id": 90, "geometry": {"type": "Point", "coordinates": [19.289, 43.761]}, "properties": {"name": "HE Vi\u0161egrad", "fuel": "hydro", "mw": 315.0, "country": "BIH", "status": "operating"}}, {"type": "Feature", "id": 91, "geometry": {"type": "Point", "coordinates": [18.936, 43.718]}, "properties": {"name": "", "fuel": "solar", "mw": 0.0, "country": "BIH", "status": "operating"}}, {"type": "Feature", "id": 92, "geometry": {"type": "Point", "coordinates": [17.714, 44.858]}, "properties": {"name": "Solarne panele", "fuel": "solar", "mw": 0.0, "country": "BIH", "status": "operating"}}, {"type": "Feature", "id": 93, "geometry": {"type": "Point", "coordinates": [17.897, 44.895]}, "properties": {"name": "", "fuel": "solar", "mw": 0.0, "country": "BIH", "status": "operating"}}, {"type": "Feature", "id": 94, "geometry": {"type": "Point", "coordinates": [18.125, 44.833]}, "properties": {"name": "", "fuel": "solar", "mw": 0.0, "country": "BIH", "status": "operating"}}, {"type": "Feature", "id": 95, "geometry": {"type": "Point", "coordinates": [17.912, 44.835]}, "properties": {"name": "", "fuel": "solar", "mw": 0.0, "country": "BIH", "status": "operating"}}, {"type": "Feature", "id": 96, "geometry": {"type": "Point", "coordinates": [17.804, 43.013]}, "properties": {"name": "\u010capljina Hydroelectric Power Station", "fuel": "hydro", "mw": 420.0, "country": "BIH", "status": "operating"}}, {"type": "Feature", "id": 97, "geometry": {"type": "Point", "coordinates": [17.845, 43.377]}, "properties": {"name": "HE Mostar powerhouse", "fuel": "hydro", "mw": 72.0, "country": "BIH", "status": "operating"}}, {"type": "Feature", "id": 98, "geometry": {"type": "Point", "coordinates": [17.719, 43.587]}, "properties": {"name": "HE Grabovica", "fuel": "hydro", "mw": 114.0, "country": "BIH", "status": "operating"}}, {"type": "Feature", "id": 99, "geometry": {"type": "Point", "coordinates": [17.768, 43.663]}, "properties": {"name": "HE Jablanica", "fuel": "unknown", "mw": 0.0, "country": "BIH", "status": "operating"}}, {"type": "Feature", "id": 100, "geometry": {"type": "Point", "coordinates": [17.794, 43.299]}, "properties": {"name": "HE Mostarsko Blato", "fuel": "hydro", "mw": 60.0, "country": "BIH", "status": "operating"}}, {"type": "Feature", "id": 101, "geometry": {"type": "Point", "coordinates": [17.794, 43.299]}, "properties": {"name": "", "fuel": "hydro", "mw": 0.0, "country": "BIH", "status": "operating"}}, {"type": "Feature", "id": 102, "geometry": {"type": "Point", "coordinates": [17.901, 43.13]}, "properties": {"name": "Solarna fotonaponska elektrana Hodovo I", "fuel": "solar", "mw": 0.0, "country": "BIH", "status": "operating"}}, {"type": "Feature", "id": 103, "geometry": {"type": "Point", "coordinates": [17.77, 43.205]}, "properties": {"name": "", "fuel": "solar", "mw": 0.0, "country": "BIH", "status": "operating"}}, {"type": "Feature", "id": 104, "geometry": {"type": "Point", "coordinates": [17.762, 43.206]}, "properties": {"name": "", "fuel": "solar", "mw": 0.0, "country": "BIH", "status": "operating"}}, {"type": "Feature", "id": 105, "geometry": {"type": "Point", "coordinates": [17.863, 43.344]}, "properties": {"name": "Vjetroelektrana Podvele\u017eje", "fuel": "wind", "mw": 48.0, "country": "BIH", "status": "operating"}}, {"type": "Feature", "id": 106, "geometry": {"type": "Point", "coordinates": [17.824, 43.295]}, "properties": {"name": "", "fuel": "solar", "mw": 0.0, "country": "BIH", "status": "operating"}}, {"type": "Feature", "id": 107, "geometry": {"type": "Point", "coordinates": [17.766, 43.663]}, "properties": {"name": "Powerhouse HE Jablanica", "fuel": "hydro", "mw": 180.0, "country": "BIH", "status": "operating"}}, {"type": "Feature", "id": 108, "geometry": {"type": "Point", "coordinates": [17.874, 43.149]}, "properties": {"name": "Town Of Stolac solar project", "fuel": "solar", "mw": 4.1, "country": "BIH", "status": "operating"}}, {"type": "Feature", "id": 109, "geometry": {"type": "Point", "coordinates": [18.018, 43.078]}, "properties": {"name": "MHE Do", "fuel": "hydro", "mw": 2.0, "country": "BIH", "status": "operating"}}, {"type": "Feature", "id": 110, "geometry": {"type": "Point", "coordinates": [20.603, 40.067]}, "properties": {"name": "", "fuel": "solar", "mw": 0.0, "country": "", "status": "operating"}}, {"type": "Feature", "id": 111, "geometry": {"type": "Point", "coordinates": [20.601, 40.067]}, "properties": {"name": "", "fuel": "solar", "mw": 0.0, "country": "", "status": "operating"}}, {"type": "Feature", "id": 112, "geometry": {"type": "Point", "coordinates": [20.569, 40.271]}, "properties": {"name": "", "fuel": "hydro", "mw": 0.0, "country": "ALB", "status": "operating"}}, {"type": "Feature", "id": 113, "geometry": {"type": "Point", "coordinates": [19.666, 40.297]}, "properties": {"name": "", "fuel": "hydro", "mw": 0.0, "country": "ALB", "status": "operating"}}, {"type": "Feature", "id": 114, "geometry": {"type": "Point", "coordinates": [18.843, 43.273]}, "properties": {"name": "Hidroelektrana Piva", "fuel": "hydro", "mw": 342.0, "country": "MNE", "status": "operating"}}, {"type": "Feature", "id": 115, "geometry": {"type": "Point", "coordinates": [19.011, 42.355]}, "properties": {"name": "HE Rijeka Crnojevi\u0107a", "fuel": "hydro", "mw": 0.0, "country": "MNE", "status": "operating"}}, {"type": "Feature", "id": 116, "geometry": {"type": "Point", "coordinates": [19.078, 43.696]}, "properties": {"name": "MHE Ustipra\u010da", "fuel": "hydro", "mw": 6.8, "country": "BIH", "status": "operating"}}, {"type": "Feature", "id": 117, "geometry": {"type": "Point", "coordinates": [19.55, 43.544]}, "properties": {"name": "\u041c\u0425\u0415 \u0420\u0435\u043a\u043e\u0432\u0438\u045b\u0438", "fuel": "unknown", "mw": 0.0, "country": "SRB", "status": "operating"}}, {"type": "Feature", "id": 118, "geometry": {"type": "Point", "coordinates": [19.552, 42.011]}, "properties": {"name": "Ashta 2 hydro power plant", "fuel": "hydro", "mw": 26.5, "country": "ALB", "status": "operating"}}, {"type": "Feature", "id": 119, "geometry": {"type": "Point", "coordinates": [19.577, 43.523]}, "properties": {"name": "\u0425\u0438\u0434\u0440\u043e-\u0435\u043b\u0435\u043a\u0442\u0440\u0430\u043d\u0430 \u201e\u041f\u043e\u0442\u043f\u0435\u045b\u201d", "fuel": "hydro", "mw": 51.0, "country": "SRB", "status": "operating"}}, {"type": "Feature", "id": 120, "geometry": {"type": "Point", "coordinates": [19.599, 42.508]}, "properties": {"name": "Stacion Elektrik", "fuel": "hydro", "mw": 0.0, "country": "ALB", "status": "operating"}}, {"type": "Feature", "id": 121, "geometry": {"type": "Point", "coordinates": [19.602, 42.002]}, "properties": {"name": "Ashta 1 hydro power plant", "fuel": "hydro", "mw": 26.5, "country": "ALB", "status": "operating"}}, {"type": "Feature", "id": 122, "geometry": {"type": "Point", "coordinates": [19.636, 42.014]}, "properties": {"name": "Vau i Dej\u00ebs Hydroelectric Power Station", "fuel": "hydro", "mw": 260.0, "country": "ALB", "status": "operating"}}, {"type": "Feature", "id": 123, "geometry": {"type": "Point", "coordinates": [19.655, 43.471]}, "properties": {"name": "\u0425\u0415 \u201e\u0411\u0438\u0441\u0442\u0440\u0438\u0446\u0430\u201d", "fuel": "hydro", "mw": 102.0, "country": "SRB", "status": "operating"}}, {"type": "Feature", "id": 124, "geometry": {"type": "Point", "coordinates": [19.696, 42.67]}, "properties": {"name": "", "fuel": "hydro", "mw": 0.0, "country": "MNE", "status": "operating"}}, {"type": "Feature", "id": 125, "geometry": {"type": "Point", "coordinates": [19.726, 42.689]}, "properties": {"name": "", "fuel": "hydro", "mw": 0.0, "country": "MNE", "status": "operating"}}, {"type": "Feature", "id": 126, "geometry": {"type": "Point", "coordinates": [19.781, 42.358]}, "properties": {"name": "Hidrocentrali Nderlysaj", "fuel": "hydro", "mw": 0.0, "country": "ALB", "status": "operating"}}, {"type": "Feature", "id": 127, "geometry": {"type": "Point", "coordinates": [19.785, 41.738]}, "properties": {"name": "Fang Hydroelectric Power Station", "fuel": "hydro", "mw": 72.0, "country": "ALB", "status": "operating"}}, {"type": "Feature", "id": 128, "geometry": {"type": "Point", "coordinates": [19.812, 43.518]}, "properties": {"name": "\u0425\u0415 \u041a\u043e\u043a\u0438\u043d \u0411\u0440\u043e\u0434", "fuel": "hydro", "mw": 22.5, "country": "SRB", "status": "operating"}}, {"type": "Feature", "id": 129, "geometry": {"type": "Point", "coordinates": [19.822, 42.103]}, "properties": {"name": "Koman Hydroelectric Power Station", "fuel": "hydro", "mw": 600.0, "country": "ALB", "status": "operating"}}, {"type": "Feature", "id": 130, "geometry": {"type": "Point", "coordinates": [19.828, 41.694]}, "properties": {"name": "Hidrocentrali Shkopet", "fuel": "hydro", "mw": 24.0, "country": "ALB", "status": "operating"}}, {"type": "Feature", "id": 131, "geometry": {"type": "Point", "coordinates": [19.861, 41.796]}, "properties": {"name": "Fang Dam Residual Flow", "fuel": "hydro", "mw": 1.1, "country": "ALB", "status": "operating"}}, {"type": "Feature", "id": 132, "geometry": {"type": "Point", "coordinates": [19.93, 43.422]}, "properties": {"name": "\u0425\u0438\u0434\u0440\u043e\u0435\u043b\u0435\u043a\u0442\u0440\u0430\u043d\u0430 \u201e\u0423\u0432\u0430\u0446\u201d", "fuel": "hydro", "mw": 36.0, "country": "SRB", "status": "operating"}}, {"type": "Feature", "id": 133, "geometry": {"type": "Point", "coordinates": [19.945, 42.3]}, "properties": {"name": "Hydroelectric power station Curraj Posht\u00ebm", "fuel": "hydro", "mw": 0.0, "country": "ALB", "status": "operating"}}, {"type": "Feature", "id": 134, "geometry": {"type": "Point", "coordinates": [19.96, 41.868]}, "properties": {"name": "Peshqesh Hydroelectric Power Station", "fuel": "hydro", "mw": 28.0, "country": "ALB", "status": "operating"}}, {"type": "Feature", "id": 135, "geometry": {"type": "Point", "coordinates": [20.038, 42.252]}, "properties": {"name": "Fierza Hydroelectric Power Station", "fuel": "hydro", "mw": 500.0, "country": "ALB", "status": "operating"}}, {"type": "Feature", "id": 136, "geometry": {"type": "Point", "coordinates": [19.893, 41.68]}, "properties": {"name": "Ul\u00ebz Hydroelectric Power Station", "fuel": "hydro", "mw": 25.0, "country": "ALB", "status": "operating"}}, {"type": "Feature", "id": 137, "geometry": {"type": "Point", "coordinates": [18.995, 42.672]}, "properties": {"name": "Hidroelektrana Peru\u0107ica", "fuel": "hydro", "mw": 307.0, "country": "MNE", "status": "operating"}}, {"type": "Feature", "id": 138, "geometry": {"type": "Point", "coordinates": [19.521, 41.511]}, "properties": {"name": "", "fuel": "solar", "mw": 0.0, "country": "ALB", "status": "operating"}}, {"type": "Feature", "id": 139, "geometry": {"type": "Point", "coordinates": [18.908, 42.534]}, "properties": {"name": "", "fuel": "unknown", "mw": 0.0, "country": "MNE", "status": "operating"}}, {"type": "Feature", "id": 140, "geometry": {"type": "Point", "coordinates": [19.747, 41.354]}, "properties": {"name": "", "fuel": "solar", "mw": 0.0, "country": "ALB", "status": "operating"}}, {"type": "Feature", "id": 141, "geometry": {"type": "Point", "coordinates": [19.353, 42.49]}, "properties": {"name": "", "fuel": "solar", "mw": 0.0, "country": "MNE", "status": "operating"}}, {"type": "Feature", "id": 142, "geometry": {"type": "Point", "coordinates": [19.906, 41.368]}, "properties": {"name": "", "fuel": "solar", "mw": 0.0, "country": "ALB", "status": "operating"}}, {"type": "Feature", "id": 143, "geometry": {"type": "Point", "coordinates": [19.804, 41.517]}, "properties": {"name": "", "fuel": "unknown", "mw": 0.0, "country": "ALB", "status": "operating"}}, {"type": "Feature", "id": 144, "geometry": {"type": "Point", "coordinates": [20.179, 42.589]}, "properties": {"name": "Hidrocentrali Lumbardhi", "fuel": "hydro", "mw": 0.0, "country": "KOS", "status": "operating"}}, {"type": "Feature", "id": 145, "geometry": {"type": "Point", "coordinates": [20.266, 41.873]}, "properties": {"name": "", "fuel": "hydro", "mw": 0.0, "country": "ALB", "status": "operating"}}, {"type": "Feature", "id": 146, "geometry": {"type": "Point", "coordinates": [20.276, 41.634]}, "properties": {"name": "", "fuel": "hydro", "mw": 0.0, "country": "ALB", "status": "operating"}}, {"type": "Feature", "id": 147, "geometry": {"type": "Point", "coordinates": [20.31, 41.739]}, "properties": {"name": "HEC SETA 4", "fuel": "hydro", "mw": 0.0, "country": "ALB", "status": "operating"}}, {"type": "Feature", "id": 148, "geometry": {"type": "Point", "coordinates": [20.317, 41.496]}, "properties": {"name": "", "fuel": "hydro", "mw": 0.0, "country": "ALB", "status": "operating"}}, {"type": "Feature", "id": 149, "geometry": {"type": "Point", "coordinates": [20.381, 42.405]}, "properties": {"name": "Eco Park", "fuel": "solar", "mw": 6.0, "country": "KOS", "status": "operating"}}, {"type": "Feature", "id": 150, "geometry": {"type": "Point", "coordinates": [20.386, 42.721]}, "properties": {"name": "ONIX Spa", "fuel": "solar", "mw": 0.5, "country": "KOS", "status": "operating"}}, {"type": "Feature", "id": 151, "geometry": {"type": "Point", "coordinates": [20.415, 41.443]}, "properties": {"name": "", "fuel": "hydro", "mw": 0.0, "country": "ALB", "status": "operating"}}, {"type": "Feature", "id": 152, "geometry": {"type": "Point", "coordinates": [20.415, 41.511]}, "properties": {"name": "Gjorice Hydro Power Station", "fuel": "hydro", "mw": 25.0, "country": "ALB", "status": "operating"}}, {"type": "Feature", "id": 153, "geometry": {"type": "Point", "coordinates": [20.416, 41.894]}, "properties": {"name": "Hidrocentrali Lapaj", "fuel": "hydro", "mw": 13.6, "country": "ALB", "status": "operating"}}, {"type": "Feature", "id": 154, "geometry": {"type": "Point", "coordinates": [20.424, 42.657]}, "properties": {"name": "Eling", "fuel": "solar", "mw": 0.5, "country": "KOS", "status": "operating"}}, {"type": "Feature", "id": 155, "geometry": {"type": "Point", "coordinates": [20.482, 42.787]}, "properties": {"name": "", "fuel": "hydro", "mw": 0.0, "country": "KOS", "status": "operating"}}, {"type": "Feature", "id": 156, "geometry": {"type": "Point", "coordinates": [20.503, 41.493]}, "properties": {"name": "\u0425\u0415\u0426 \u0428\u043f\u0438\u043b\u0458\u0435", "fuel": "hydro", "mw": 84.0, "country": "MKD", "status": "operating"}}, {"type": "Feature", "id": 157, "geometry": {"type": "Point", "coordinates": [20.586, 41.395]}, "properties": {"name": "\u0425\u0415\u0426 \u0413\u043b\u043e\u0431\u043e\u0447\u0438\u0446\u0430", "fuel": "hydro", "mw": 42.0, "country": "MKD", "status": "operating"}}, {"type": "Feature", "id": 158, "geometry": {"type": "Point", "coordinates": [20.661, 42.621]}, "properties": {"name": "LED Light Technology Kosova", "fuel": "solar", "mw": 0.1, "country": "KOS", "status": "operating"}}, {"type": "Feature", "id": 159, "geometry": {"type": "Point", "coordinates": [20.664, 42.934]}, "properties": {"name": "", "fuel": "hydro", "mw": 0.0, "country": "KOS", "status": "operating"}}, {"type": "Feature", "id": 160, "geometry": {"type": "Point", "coordinates": [20.675, 42.01]}, "properties": {"name": "Stacioni Hidrocentral Dikanc\u00eb", "fuel": "hydro", "mw": 4.1, "country": "KOS", "status": "operating"}}, {"type": "Feature", "id": 161, "geometry": {"type": "Point", "coordinates": [20.713, 43.406]}, "properties": {"name": "MHE Planska", "fuel": "hydro", "mw": 0.0, "country": "SRB", "status": "operating"}}, {"type": "Feature", "id": 162, "geometry": {"type": "Point", "coordinates": [20.722, 41.716]}, "properties": {"name": "\u0425\u0415 \u0412\u0440\u0431\u0435\u043d", "fuel": "hydro", "mw": 12.8, "country": "MKD", "status": "operating"}}, {"type": "Feature", "id": 163, "geometry": {"type": "Point", "coordinates": [20.855, 41.779]}, "properties": {"name": "\u0425\u0415 \u0420\u0430\u0432\u0435\u043d", "fuel": "hydro", "mw": 21.0, "country": "MKD", "status": "operating"}}, {"type": "Feature", "id": 164, "geometry": {"type": "Point", "coordinates": [21.017, 42.984]}, "properties": {"name": "Parku Energjetik me er\u00eb n\u00eb Bajgor\u00eb dhe Selac", "fuel": "wind", "mw": 0.0, "country": "KOS", "status": "operating"}}, {"type": "Feature", "id": 165, "geometry": {"type": "Point", "coordinates": [21.011, 41.569]}, "properties": {"name": "", "fuel": "solar", "mw": 100.0, "country": "MKD", "status": "operating"}}, {"type": "Feature", "id": 166, "geometry": {"type": "Point", "coordinates": [21.082, 42.677]}, "properties": {"name": "Kosovo Power Plants", "fuel": "coal", "mw": 0.0, "country": "KOS", "status": "operating"}}, {"type": "Feature", "id": 167, "geometry": {"type": "Point", "coordinates": [21.255, 42.955]}, "properties": {"name": "", "fuel": "solar", "mw": 0.0, "country": "SRB", "status": "operating"}}, {"type": "Feature", "id": 168, "geometry": {"type": "Point", "coordinates": [21.257, 42.954]}, "properties": {"name": "", "fuel": "solar", "mw": 0.0, "country": "SRB", "status": "operating"}}, {"type": "Feature", "id": 169, "geometry": {"type": "Point", "coordinates": [21.264, 41.925]}, "properties": {"name": "\u0425\u0415 \u0421\u0432\u0435\u0442\u0430 \u041f\u0435\u0442\u043a\u0430", "fuel": "hydro", "mw": 36.4, "country": "MKD", "status": "operating"}}, {"type": "Feature", "id": 170, "geometry": {"type": "Point", "coordinates": [21.275, 43.14]}, "properties": {"name": "Mini HidroElektrana", "fuel": "hydro", "mw": 0.0, "country": "SRB", "status": "operating"}}, {"type": "Feature", "id": 171, "geometry": {"type": "Point", "coordinates": [21.349, 42.265]}, "properties": {"name": "", "fuel": "hydro", "mw": 0.0, "country": "KOS", "status": "operating"}}, {"type": "Feature", "id": 172, "geometry": {"type": "Point", "coordinates": [21.382, 43.21]}, "properties": {"name": "", "fuel": "hydro", "mw": 0.0, "country": "SRB", "status": "operating"}}, {"type": "Feature", "id": 173, "geometry": {"type": "Point", "coordinates": [21.454, 41.994]}, "properties": {"name": "\u0422\u043e\u043f\u043b\u0438\u0444\u0438\u043a\u0430\u0446\u0438\u0458\u0430 \u0418\u0441\u0442\u043e\u043a", "fuel": "gas", "mw": 0.0, "country": "MKD", "status": "operating"}}, {"type": "Feature", "id": 174, "geometry": {"type": "Point", "coordinates": [21.098, 42.663]}, "properties": {"name": "Solar4Kosovo 1 PV - planned", "fuel": "solar", "mw": 100.0, "country": "KOS", "status": "operating"}}, {"type": "Feature", "id": 175, "geometry": {"type": "Point", "coordinates": [20.839, 41.949]}, "properties": {"name": "", "fuel": "hydro", "mw": 0.0, "country": "MKD", "status": "operating"}}, {"type": "Feature", "id": 176, "geometry": {"type": "Point", "coordinates": [21.192, 41.88]}, "properties": {"name": "\u0425\u0415\u0426 \u041a\u043e\u0437\u0458\u0430\u043a", "fuel": "hydro", "mw": 82.0, "country": "MKD", "status": "operating"}}, {"type": "Feature", "id": 177, "geometry": {"type": "Point", "coordinates": [21.298, 41.953]}, "properties": {"name": "XE \u041c\u0430\u0442\u043a\u0430", "fuel": "hydro", "mw": 9.6, "country": "MKD", "status": "operating"}}, {"type": "Feature", "id": 178, "geometry": {"type": "Point", "coordinates": [20.951, 42.021]}, "properties": {"name": "\u0425\u0438\u0434\u0440\u043e\u0435\u043b\u0435\u043a\u0442\u0440\u0430\u043d\u0430 \u041f\u0435\u043d\u0430", "fuel": "hydro", "mw": 3.3, "country": "MKD", "status": "operating"}}, {"type": "Feature", "id": 179, "geometry": {"type": "Point", "coordinates": [20.984, 42.576]}, "properties": {"name": "Parku Eolik \"Golesh\"", "fuel": "wind", "mw": 0.0, "country": "KOS", "status": "operating"}}, {"type": "Feature", "id": 180, "geometry": {"type": "Point", "coordinates": [21.437, 42.016]}, "properties": {"name": "\u0422\u043e\u043f\u043b\u0438\u0444\u0438\u043a\u0430\u0446\u0438\u0458\u0430", "fuel": "unknown", "mw": 0.0, "country": "MKD", "status": "operating"}}, {"type": "Feature", "id": 181, "geometry": {"type": "Point", "coordinates": [21.391, 42.001]}, "properties": {"name": "\u0422\u043e\u043f\u043b\u0438\u0444\u0438\u043a\u0430\u0446\u0438\u0458\u0430", "fuel": "unknown", "mw": 0.0, "country": "MKD", "status": "operating"}}, {"type": "Feature", "id": 182, "geometry": {"type": "Point", "coordinates": [20.837, 41.293]}, "properties": {"name": "", "fuel": "solar", "mw": 0.0, "country": "MKD", "status": "operating"}}, {"type": "Feature", "id": 183, "geometry": {"type": "Point", "coordinates": [20.291, 41.232]}, "properties": {"name": "", "fuel": "hydro", "mw": 0.0, "country": "ALB", "status": "operating"}}, {"type": "Feature", "id": 184, "geometry": {"type": "Point", "coordinates": [20.32, 41.239]}, "properties": {"name": "", "fuel": "hydro", "mw": 0.0, "country": "ALB", "status": "operating"}}, {"type": "Feature", "id": 185, "geometry": {"type": "Point", "coordinates": [20.976, 41.901]}, "properties": {"name": "", "fuel": "solar", "mw": 0.0, "country": "MKD", "status": "operating"}}, {"type": "Feature", "id": 186, "geometry": {"type": "Point", "coordinates": [20.993, 41.882]}, "properties": {"name": "", "fuel": "solar", "mw": 0.0, "country": "MKD", "status": "operating"}}, {"type": "Feature", "id": 187, "geometry": {"type": "Point", "coordinates": [21.009, 41.56]}, "properties": {"name": "", "fuel": "solar", "mw": 0.0, "country": "MKD", "status": "operating"}}, {"type": "Feature", "id": 188, "geometry": {"type": "Point", "coordinates": [20.541, 42.476]}, "properties": {"name": "Parku Solar 100MW - Planned", "fuel": "solar", "mw": 0.0, "country": "KOS", "status": "operating"}}, {"type": "Feature", "id": 189, "geometry": {"type": "Point", "coordinates": [20.299, 41.192]}, "properties": {"name": "Hidrocentrali i Rrapunit", "fuel": "hydro", "mw": 9.0, "country": "ALB", "status": "operating"}}, {"type": "Feature", "id": 190, "geometry": {"type": "Point", "coordinates": [21.24, 41.362]}, "properties": {"name": "\u041f\u0422 \u0415\u043d\u0435\u0440\u045f\u0438", "fuel": "solar", "mw": 0.0, "country": "MKD", "status": "operating"}}, {"type": "Feature", "id": 191, "geometry": {"type": "Point", "coordinates": [19.436, 40.49]}, "properties": {"name": "TEC Vlora", "fuel": "oil", "mw": 97.0, "country": "ALB", "status": "operating"}}, {"type": "Feature", "id": 192, "geometry": {"type": "Point", "coordinates": [19.583, 41.02]}, "properties": {"name": "", "fuel": "hydro", "mw": 0.0, "country": "ALB", "status": "operating"}}, {"type": "Feature", "id": 193, "geometry": {"type": "Point", "coordinates": [20.061, 40.966]}, "properties": {"name": "Banj\u00eb Hydro Power Plant", "fuel": "hydro", "mw": 72.0, "country": "ALB", "status": "operating"}}, {"type": "Feature", "id": 194, "geometry": {"type": "Point", "coordinates": [20.47, 40.921]}, "properties": {"name": "", "fuel": "hydro", "mw": 0.0, "country": "ALB", "status": "operating"}}, {"type": "Feature", "id": 195, "geometry": {"type": "Point", "coordinates": [20.48, 40.435]}, "properties": {"name": "", "fuel": "hydro", "mw": 0.0, "country": "ALB", "status": "operating"}}, {"type": "Feature", "id": 196, "geometry": {"type": "Point", "coordinates": [20.513, 40.969]}, "properties": {"name": "", "fuel": "hydro", "mw": 0.0, "country": "ALB", "status": "operating"}}, {"type": "Feature", "id": 197, "geometry": {"type": "Point", "coordinates": [20.529, 40.72]}, "properties": {"name": "", "fuel": "hydro", "mw": 0.0, "country": "ALB", "status": "operating"}}, {"type": "Feature", "id": 198, "geometry": {"type": "Point", "coordinates": [19.45, 40.844]}, "properties": {"name": "Karavasta Solar", "fuel": "solar", "mw": 140.0, "country": "ALB", "status": "operating"}}, {"type": "Feature", "id": 199, "geometry": {"type": "Point", "coordinates": [20.509, 40.457]}, "properties": {"name": "", "fuel": "hydro", "mw": 0.0, "country": "ALB", "status": "operating"}}, {"type": "Feature", "id": 200, "geometry": {"type": "Point", "coordinates": [20.518, 40.457]}, "properties": {"name": "", "fuel": "hydro", "mw": 0.0, "country": "ALB", "status": "operating"}}, {"type": "Feature", "id": 201, "geometry": {"type": "Point", "coordinates": [20.036, 40.491]}, "properties": {"name": "", "fuel": "hydro", "mw": 0.0, "country": "ALB", "status": "operating"}}, {"type": "Feature", "id": 202, "geometry": {"type": "Point", "coordinates": [20.336, 40.744]}, "properties": {"name": "Hidrocentrali i Moglic\u00ebs", "fuel": "hydro", "mw": 197.0, "country": "ALB", "status": "operating"}}, {"type": "Feature", "id": 203, "geometry": {"type": "Point", "coordinates": [21.404, 40.866]}, "properties": {"name": "", "fuel": "solar", "mw": 0.0, "country": "", "status": "operating"}}, {"type": "Feature", "id": 204, "geometry": {"type": "Point", "coordinates": [21.425, 40.892]}, "properties": {"name": "", "fuel": "solar", "mw": 0.0, "country": "", "status": "operating"}}, {"type": "Feature", "id": 205, "geometry": {"type": "Point", "coordinates": [21.46, 40.908]}, "properties": {"name": "", "fuel": "solar", "mw": 0.0, "country": "MKD", "status": "operating"}}, {"type": "Feature", "id": 206, "geometry": {"type": "Point", "coordinates": [21.435, 41.057]}, "properties": {"name": "", "fuel": "hydro", "mw": 0.0, "country": "MKD", "status": "operating"}}, {"type": "Feature", "id": 207, "geometry": {"type": "Point", "coordinates": [21.233, 41.208]}, "properties": {"name": "\u0410\u0411 \u0421\u043e\u043b\u0430\u0440", "fuel": "solar", "mw": 0.0, "country": "MKD", "status": "operating"}}, {"type": "Feature", "id": 208, "geometry": {"type": "Point", "coordinates": [21.539, 41.296]}, "properties": {"name": "\u0421\u043e\u043b\u0430\u0440 \u0422\u0435\u043a", "fuel": "solar", "mw": 0.0, "country": "MKD", "status": "operating"}}, {"type": "Feature", "id": 209, "geometry": {"type": "Point", "coordinates": [21.505, 41.287]}, "properties": {"name": "", "fuel": "solar", "mw": 0.0, "country": "MKD", "status": "operating"}}, {"type": "Feature", "id": 210, "geometry": {"type": "Point", "coordinates": [17.583, 43.141]}, "properties": {"name": "", "fuel": "solar", "mw": 0.0, "country": "BIH", "status": "operating"}}, {"type": "Feature", "id": 211, "geometry": {"type": "Point", "coordinates": [17.601, 43.195]}, "properties": {"name": "", "fuel": "solar", "mw": 0.0, "country": "BIH", "status": "operating"}}, {"type": "Feature", "id": 212, "geometry": {"type": "Point", "coordinates": [17.613, 43.372]}, "properties": {"name": "Hidroelektrana", "fuel": "hydro", "mw": 0.0, "country": "BIH", "status": "operating"}}, {"type": "Feature", "id": 213, "geometry": {"type": "Point", "coordinates": [17.353, 43.458]}, "properties": {"name": "", "fuel": "solar", "mw": 0.0, "country": "BIH", "status": "operating"}}, {"type": "Feature", "id": 214, "geometry": {"type": "Point", "coordinates": [17.355, 43.459]}, "properties": {"name": "", "fuel": "solar", "mw": 0.0, "country": "BIH", "status": "operating"}}, {"type": "Feature", "id": 215, "geometry": {"type": "Point", "coordinates": [17.351, 43.339]}, "properties": {"name": "Petjnik", "fuel": "solar", "mw": 45.0, "country": "", "status": "operating"}}, {"type": "Feature", "id": 216, "geometry": {"type": "Point", "coordinates": [17.447, 43.33]}, "properties": {"name": "", "fuel": "solar", "mw": 0.0, "country": "BIH", "status": "operating"}}, {"type": "Feature", "id": 217, "geometry": {"type": "Point", "coordinates": [17.449, 43.328]}, "properties": {"name": "", "fuel": "solar", "mw": 0.0, "country": "BIH", "status": "operating"}}, {"type": "Feature", "id": 218, "geometry": {"type": "Point", "coordinates": [17.444, 43.328]}, "properties": {"name": "Grad Ljubu\u0161ki solar project II", "fuel": "solar", "mw": 2.4, "country": "BIH", "status": "operating"}}, {"type": "Feature", "id": 219, "geometry": {"type": "Point", "coordinates": [17.645, 43.177]}, "properties": {"name": "City Of \u010capljina solar project II", "fuel": "solar", "mw": 5.5, "country": "BIH", "status": "operating"}}, {"type": "Feature", "id": 220, "geometry": {"type": "Point", "coordinates": [17.68, 43.077]}, "properties": {"name": "City Of \u010capljina solar project I", "fuel": "solar", "mw": 1.2, "country": "BIH", "status": "operating"}}, {"type": "Feature", "id": 221, "geometry": {"type": "Point", "coordinates": [18.38, 42.707]}, "properties": {"name": "Hidroelektrana Trebinje II", "fuel": "hydro", "mw": 8.0, "country": "", "status": "operating"}}, {"type": "Feature", "id": 222, "geometry": {"type": "Point", "coordinates": [18.497, 42.734]}, "properties": {"name": "HE Trebinje I", "fuel": "hydro", "mw": 168.0, "country": "BIH", "status": "operating"}}, {"type": "Feature", "id": 223, "geometry": {"type": "Point", "coordinates": [18.426, 42.79]}, "properties": {"name": "Skrbotno solar PV park", "fuel": "solar", "mw": 60.0, "country": "BIH", "status": "operating"}}, {"type": "Feature", "id": 224, "geometry": {"type": "Point", "coordinates": [18.451, 42.843]}, "properties": {"name": "Solarni paneli", "fuel": "solar", "mw": 0.0, "country": "BIH", "status": "operating"}}, {"type": "Feature", "id": 225, "geometry": {"type": "Point", "coordinates": [18.448, 42.844]}, "properties": {"name": "Solarni paneli", "fuel": "solar", "mw": 0.0, "country": "BIH", "status": "operating"}}, {"type": "Feature", "id": 226, "geometry": {"type": "Point", "coordinates": [18.408, 42.865]}, "properties": {"name": "", "fuel": "solar", "mw": 0.0, "country": "BIH", "status": "operating"}}, {"type": "Feature", "id": 227, "geometry": {"type": "Point", "coordinates": [18.407, 42.865]}, "properties": {"name": "", "fuel": "solar", "mw": 0.0, "country": "BIH", "status": "operating"}}, {"type": "Feature", "id": 228, "geometry": {"type": "Point", "coordinates": [18.421, 42.871]}, "properties": {"name": "Solarni paneli", "fuel": "solar", "mw": 0.0, "country": "BIH", "status": "operating"}}, {"type": "Feature", "id": 229, "geometry": {"type": "Point", "coordinates": [18.438, 42.89]}, "properties": {"name": "", "fuel": "solar", "mw": 0.0, "country": "BIH", "status": "operating"}}, {"type": "Feature", "id": 230, "geometry": {"type": "Point", "coordinates": [18.416, 42.901]}, "properties": {"name": "Solarni paneli", "fuel": "solar", "mw": 0.0, "country": "BIH", "status": "operating"}}, {"type": "Feature", "id": 231, "geometry": {"type": "Point", "coordinates": [18.416, 42.902]}, "properties": {"name": "Solarni paneli", "fuel": "solar", "mw": 0.0, "country": "BIH", "status": "operating"}}, {"type": "Feature", "id": 232, "geometry": {"type": "Point", "coordinates": [18.384, 42.904]}, "properties": {"name": "Solarni paneli", "fuel": "solar", "mw": 0.0, "country": "BIH", "status": "operating"}}, {"type": "Feature", "id": 233, "geometry": {"type": "Point", "coordinates": [18.416, 42.904]}, "properties": {"name": "Solarni paneli", "fuel": "solar", "mw": 0.0, "country": "BIH", "status": "operating"}}, {"type": "Feature", "id": 234, "geometry": {"type": "Point", "coordinates": [18.419, 42.904]}, "properties": {"name": "Solarni paneli", "fuel": "solar", "mw": 0.0, "country": "BIH", "status": "operating"}}, {"type": "Feature", "id": 235, "geometry": {"type": "Point", "coordinates": [18.199, 43.218]}, "properties": {"name": "", "fuel": "solar", "mw": 0.0, "country": "BIH", "status": "operating"}}, {"type": "Feature", "id": 236, "geometry": {"type": "Point", "coordinates": [18.202, 43.22]}, "properties": {"name": "Republika Srpska solar project III", "fuel": "solar", "mw": 1.5, "country": "BIH", "status": "operating"}}, {"type": "Feature", "id": 237, "geometry": {"type": "Point", "coordinates": [18.223, 43.258]}, "properties": {"name": "", "fuel": "solar", "mw": 0.0, "country": "BIH", "status": "operating"}}, {"type": "Feature", "id": 238, "geometry": {"type": "Point", "coordinates": [18.324, 43.475]}, "properties": {"name": "HE Ulog (mali)", "fuel": "unknown", "mw": 0.0, "country": "BIH", "status": "operating"}}, {"type": "Feature", "id": 239, "geometry": {"type": "Point", "coordinates": [18.618, 43.494]}, "properties": {"name": "MHE Jele\u010d", "fuel": "hydro", "mw": 4.8, "country": "BIH", "status": "operating"}}, {"type": "Feature", "id": 240, "geometry": {"type": "Point", "coordinates": [18.467, 43.602]}, "properties": {"name": "MHE Bistrica B-5A", "fuel": "hydro", "mw": 0.0, "country": "BIH", "status": "operating"}}, {"type": "Feature", "id": 241, "geometry": {"type": "Point", "coordinates": [18.157, 43.092]}, "properties": {"name": "Republika Srpska solar project II", "fuel": "solar", "mw": 2.6, "country": "BIH", "status": "operating"}}, {"type": "Feature", "id": 242, "geometry": {"type": "Point", "coordinates": [20.326, 44.449]}, "properties": {"name": "", "fuel": "unknown", "mw": 0.0, "country": "SRB", "status": "operating"}}, {"type": "Feature", "id": 243, "geometry": {"type": "Point", "coordinates": [20.378, 44.732]}, "properties": {"name": "\u0422\u043e\u043f\u043b\u0430\u043d\u0430 \u201e\u0416\u0435\u043b\u0435\u0437\u043d\u0438\u043a\u201c", "fuel": "gas", "mw": 0.0, "country": "SRB", "status": "operating"}}, {"type": "Feature", "id": 244, "geometry": {"type": "Point", "coordinates": [20.392, 44.844]}, "properties": {"name": "\u0422\u043e\u043f\u043b\u0430\u043d\u0430 \u201e\u0417\u0435\u043c\u0443\u043d\u201c", "fuel": "gas", "mw": 0.0, "country": "SRB", "status": "operating"}}, {"type": "Feature", "id": 245, "geometry": {"type": "Point", "coordinates": [20.416, 44.736]}, "properties": {"name": "\u0422\u043e\u043f\u043b\u0430\u043d\u0430 \u201e\u0426\u0435\u0440\u0430\u043a\u201c", "fuel": "gas", "mw": 0.0, "country": "SRB", "status": "operating"}}, {"type": "Feature", "id": 246, "geometry": {"type": "Point", "coordinates": [20.461, 44.711]}, "properties": {"name": "\u0422\u043e\u043f\u043b\u0430\u043d\u0430 \u201e\u0420\u0435\u0441\u043d\u0438\u043a\u201c", "fuel": "gas", "mw": 0.0, "country": "SRB", "status": "operating"}}, {"type": "Feature", "id": 247, "geometry": {"type": "Point", "coordinates": [20.496, 44.775]}, "properties": {"name": "\u0422\u043e\u043f\u043b\u0430\u043d\u0430 \u201e\u041c\u0435\u0434\u0430\u043a\u043e\u0432\u0438\u045b\u201c", "fuel": "gas", "mw": 0.0, "country": "SRB", "status": "operating"}}, {"type": "Feature", "id": 248, "geometry": {"type": "Point", "coordinates": [20.653, 44.883]}, "properties": {"name": "", "fuel": "unknown", "mw": 0.0, "country": "SRB", "status": "operating"}}, {"type": "Feature", "id": 249, "geometry": {"type": "Point", "coordinates": [20.898, 45.058]}, "properties": {"name": "\u0412\u0435\u0442\u0440\u043e\u043f\u0430\u0440\u043a \u0410\u043b\u0438\u0431\u0443\u043d\u0430\u0440", "fuel": "wind", "mw": 42.0, "country": "SRB", "status": "operating"}}, {"type": "Feature", "id": 250, "geometry": {"type": "Point", "coordinates": [20.935, 44.943]}, "properties": {"name": "\u0412\u0435\u0442\u0440\u043e\u043f\u0430\u0440\u043a \u0427\u0438\u0431\u0443\u043a 1", "fuel": "wind", "mw": 158.0, "country": "SRB", "status": "operating"}}, {"type": "Feature", "id": 251, "geometry": {"type": "Point", "coordinates": [20.937, 45.068]}, "properties": {"name": "\u0412\u0435\u0442\u0440\u043e\u043f\u0430\u0440\u043a \u041c\u0430\u043b\u0438\u0431\u0443\u043d\u0430\u0440", "fuel": "wind", "mw": 8.0, "country": "SRB", "status": "operating"}}, {"type": "Feature", "id": 252, "geometry": {"type": "Point", "coordinates": [20.955, 45.065]}, "properties": {"name": "\u0410\u043b\u0438\u0431\u0443\u043d\u0430\u0440 I", "fuel": "wind", "mw": 9.0, "country": "SRB", "status": "operating"}}, {"type": "Feature", "id": 253, "geometry": {"type": "Point", "coordinates": [21.187, 45.004]}, "properties": {"name": "\u0412\u0435\u0442\u0440\u043e\u043f\u0430\u0440\u043a \u041a\u043e\u0448\u0430\u0432\u0430", "fuel": "wind", "mw": 69.0, "country": "SRB", "status": "operating"}}, {"type": "Feature", "id": 254, "geometry": {"type": "Point", "coordinates": [21.165, 44.225]}, "properties": {"name": "\u0422\u0415 \u201e\u041c\u043e\u0440\u0430\u0432\u0430\u201c", "fuel": "coal", "mw": 125.0, "country": "SRB", "status": "operating"}}, {"type": "Feature", "id": 255, "geometry": {"type": "Point", "coordinates": [21.172, 44.723]}, "properties": {"name": "\u0422\u0435\u0440\u043c\u043e\u0435\u043b\u0435\u043a\u0442\u0440\u0430\u043d\u0430 \u201e\u041a\u043e\u0441\u0442\u043e\u043b\u0430\u0446 \u0410\u201c", "fuel": "coal", "mw": 310.0, "country": "SRB", "status": "operating"}}, {"type": "Feature", "id": 256, "geometry": {"type": "Point", "coordinates": [21.213, 44.728]}, "properties": {"name": "\u0422\u0435\u0440\u043c\u043e\u0435\u043b\u0435\u043a\u0442\u0440\u0430\u043d\u0430 \u201e\u041a\u043e\u0441\u0442\u043e\u043b\u0430\u0446 \u0411\u201c", "fuel": "coal", "mw": 697.0, "country": "SRB", "status": "operating"}}, {"type": "Feature", "id": 257, "geometry": {"type": "Point", "coordinates": [21.226, 44.996]}, "properties": {"name": "\u0412\u0435\u0442\u0440\u043e\u043f\u0430\u0440\u043a \u041b\u0430 \u041f\u0438\u0447\u043e\u043b\u0438\u043d\u0430", "fuel": "wind", "mw": 6.6, "country": "SRB", "status": "operating"}}, {"type": "Feature", "id": 258, "geometry": {"type": "Point", "coordinates": [21.68, 44.605]}, "properties": {"name": "\u041a\u0440\u0438\u0432\u0430\u0447\u0430", "fuel": "wind", "mw": 102.3, "country": "SRB", "status": "operating"}}, {"type": "Feature", "id": 259, "geometry": {"type": "Point", "coordinates": [21.721, 44.68]}, "properties": {"name": "Moldova Noua wind farm", "fuel": "wind", "mw": 48.0, "country": "SRB", "status": "operating"}}, {"type": "Feature", "id": 260, "geometry": {"type": "Point", "coordinates": [19.813, 45.249]}, "properties": {"name": "\u0422\u043e\u043f\u043b\u0430\u043d\u0430 \u0417\u0430\u043f\u0430\u0434", "fuel": "gas", "mw": 10.0, "country": "SRB", "status": "operating"}}, {"type": "Feature", "id": 261, "geometry": {"type": "Point", "coordinates": [19.83, 43.852]}, "properties": {"name": "\u041c\u0430\u043b\u0430 \u0445\u0438\u0434\u0440\u043e\u0435\u043b\u0435\u043a\u0442\u0440\u0430\u043d\u0430 \u041f\u043e\u0434 \u0433\u0440\u0430\u0434\u043e\u043c", "fuel": "hydro", "mw": 0.4, "country": "SRB", "status": "operating"}}, {"type": "Feature", "id": 262, "geometry": {"type": "Point", "coordinates": [20.41, 44.801]}, "properties": {"name": "\u0422\u043e\u043f\u043b\u0430\u043d\u0430 \u201e\u041d\u043e\u0432\u0438 \u0411\u0435\u043e\u0433\u0440\u0430\u0434\u201c", "fuel": "gas", "mw": 0.0, "country": "SRB", "status": "operating"}}, {"type": "Feature", "id": 263, "geometry": {"type": "Point", "coordinates": [20.455, 44.749]}, "properties": {"name": "\u0422\u043e\u043f\u043b\u0430\u043d\u0430 \u201e\u041c\u0438\u0459\u0430\u043a\u043e\u0432\u0430\u0446\u201c", "fuel": "gas", "mw": 0.0, "country": "SRB", "status": "operating"}}, {"type": "Feature", "id": 264, "geometry": {"type": "Point", "coordinates": [20.486, 44.754]}, "properties": {"name": "\u0422\u043e\u043f\u043b\u0430\u043d\u0430 \u201e\u0412\u043e\u0436\u0434\u043e\u0432\u0430\u0446\u201c", "fuel": "gas", "mw": 0.0, "country": "SRB", "status": "operating"}}, {"type": "Feature", "id": 265, "geometry": {"type": "Point", "coordinates": [20.512, 44.786]}, "properties": {"name": "\u0422\u043e\u043f\u043b\u0430\u043d\u0430 \u201e\u041a\u043e\u045a\u0430\u0440\u043d\u0438\u043a\u201c", "fuel": "gas", "mw": 0.0, "country": "SRB", "status": "operating"}}, {"type": "Feature", "id": 266, "geometry": {"type": "Point", "coordinates": [20.534, 44.789]}, "properties": {"name": "\u0422\u043e\u043f\u043b\u0430\u043d\u0430 \u201e\u041c\u0438\u0440\u0438\u0458\u0435\u0432\u043e\u201c", "fuel": "gas", "mw": 0.0, "country": "SRB", "status": "operating"}}, {"type": "Feature", "id": 267, "geometry": {"type": "Point", "coordinates": [20.536, 44.815]}, "properties": {"name": "\u0422\u043e\u043f\u043b\u0430\u043d\u0430 \u201e\u0412\u0438\u0448\u045a\u0438\u0447\u043a\u0430 \u0431\u0430\u045a\u0430\u201c", "fuel": "gas", "mw": 0.0, "country": "SRB", "status": "operating"}}, {"type": "Feature", "id": 268, "geometry": {"type": "Point", "coordinates": [20.469, 44.828]}, "properties": {"name": "\u0422\u043e\u043f\u043b\u0430\u043d\u0430 \u201e\u0414\u0443\u043d\u0430\u0432\u201c", "fuel": "gas", "mw": 0.0, "country": "SRB", "status": "operating"}}, {"type": "Feature", "id": 269, "geometry": {"type": "Point", "coordinates": [20.415, 44.779]}, "properties": {"name": "\u0422\u043e\u043f\u043b\u0430\u043d\u0430 \u201e\u0411\u0430\u043d\u043e\u0432\u043e \u0431\u0440\u0434\u043e\u201c", "fuel": "gas", "mw": 0.0, "country": "SRB", "status": "operating"}}, {"type": "Feature", "id": 270, "geometry": {"type": "Point", "coordinates": [20.453, 44.874]}, "properties": {"name": "\u0422\u043e\u043f\u043b\u0430\u043d\u0430 \u201e\u0411\u043e\u0440\u0447\u0430\u201c", "fuel": "gas", "mw": 0.0, "country": "SRB", "status": "operating"}}, {"type": "Feature", "id": 271, "geometry": {"type": "Point", "coordinates": [20.286, 44.891]}, "properties": {"name": "\u0422\u043e\u043f\u043b\u0430\u043d\u0430 \"\u0411\u0430\u0442\u0430\u0458\u043d\u0438\u0446\u0430\"", "fuel": "unknown", "mw": 0.0, "country": "SRB", "status": "operating"}}, {"type": "Feature", "id": 272, "geometry": {"type": "Point", "coordinates": [20.378, 44.694]}, "properties": {"name": "\u0422\u043e\u043f\u043b\u0430\u043d\u0430 \"\u0421\u0440\u0435\u043c\u0447\u0438\u0446\u0430\"", "fuel": "unknown", "mw": 0.0, "country": "SRB", "status": "operating"}}, {"type": "Feature", "id": 273, "geometry": {"type": "Point", "coordinates": [19.813, 45.249]}, "properties": {"name": "\u0422\u043e\u043f\u043b\u0430\u043d\u0430 \u0417\u0430\u043f\u0430\u0434", "fuel": "gas", "mw": 10.0, "country": "SRB", "status": "operating"}}, {"type": "Feature", "id": 274, "geometry": {"type": "Point", "coordinates": [20.915, 44.003]}, "properties": {"name": "\u0422\u043e\u043f\u043b\u0430\u043d\u0430", "fuel": "coal", "mw": 0.0, "country": "SRB", "status": "operating"}}, {"type": "Feature", "id": 275, "geometry": {"type": "Point", "coordinates": [19.885, 45.268]}, "properties": {"name": "\u0422\u0415-\u0422\u041e \u041d\u043e\u0432\u0438 \u0421\u0430\u0434", "fuel": "gas", "mw": 255.0, "country": "SRB", "status": "operating"}}, {"type": "Feature", "id": 276, "geometry": {"type": "Point", "coordinates": [20.68, 44.831]}, "properties": {"name": "Te-To Pancevo Power Plant", "fuel": "gas", "mw": 0.0, "country": "SRB", "status": "operating"}}, {"type": "Feature", "id": 277, "geometry": {"type": "Point", "coordinates": [19.87, 45.387]}, "properties": {"name": "", "fuel": "solar", "mw": 0.0, "country": "SRB", "status": "operating"}}, {"type": "Feature", "id": 278, "geometry": {"type": "Point", "coordinates": [21.071, 44.493]}, "properties": {"name": "\u0421\u0430\u0440\u0430\u043e\u0440\u0446\u0438", "fuel": "solar", "mw": 9.9, "country": "SRB", "status": "operating"}}, {"type": "Feature", "id": 279, "geometry": {"type": "Point", "coordinates": [20.932, 44.662]}, "properties": {"name": "Parnjaca", "fuel": "oil", "mw": 0.0, "country": "SRB", "status": "operating"}}, {"type": "Feature", "id": 280, "geometry": {"type": "Point", "coordinates": [20.078, 45.085]}, "properties": {"name": "", "fuel": "solar", "mw": 0.0, "country": "SRB", "status": "operating"}}, {"type": "Feature", "id": 281, "geometry": {"type": "Point", "coordinates": [21.001, 41.582]}, "properties": {"name": "\u0422\u0415\u0426 \u041e\u0441\u043b\u043e\u043c\u0435\u0458", "fuel": "coal", "mw": 125.0, "country": "MKD", "status": "operating"}}, {"type": "Feature", "id": 282, "geometry": {"type": "Point", "coordinates": [21.453, 41.994]}, "properties": {"name": "\u0422\u0435-\u0422\u043e", "fuel": "gas", "mw": 220.0, "country": "MKD", "status": "operating"}}, {"type": "Feature", "id": 283, "geometry": {"type": "Point", "coordinates": [21.488, 41.059]}, "properties": {"name": "\u0422\u0415\u0426 \u0411\u0438\u0442\u043e\u043b\u0430", "fuel": "coal", "mw": 699.0, "country": "MKD", "status": "operating"}}, {"type": "Feature", "id": 284, "geometry": {"type": "Point", "coordinates": [21.085, 42.676]}, "properties": {"name": "Termocentrali Kosova A", "fuel": "coal", "mw": 800.0, "country": "KOS", "status": "operating"}}, {"type": "Feature", "id": 285, "geometry": {"type": "Point", "coordinates": [21.058, 42.693]}, "properties": {"name": "Termocentrali Kosova B", "fuel": "coal", "mw": 680.0, "country": "KOS", "status": "operating"}}, {"type": "Feature", "id": 286, "geometry": {"type": "Point", "coordinates": [22.164, 42.672]}, "properties": {"name": "\u0425\u0438\u0434\u0440\u043e\u0435\u043b\u0435\u043a\u0442\u0440\u0430\u043d\u0430 \u0412\u0440\u043b\u0430 3", "fuel": "hydro", "mw": 28.9, "country": "SRB", "status": "operating"}}, {"type": "Feature", "id": 287, "geometry": {"type": "Point", "coordinates": [21.914, 43.325]}, "properties": {"name": "\u0413\u0440\u0430\u0434\u0441\u043a\u0430 \u0442\u043e\u043f\u043b\u0430\u043d\u0430 \u201e\u041d\u0438\u0448\u201c", "fuel": "gas", "mw": 0.0, "country": "SRB", "status": "operating"}}, {"type": "Feature", "id": 288, "geometry": {"type": "Point", "coordinates": [22.288, 43.851]}, "properties": {"name": "", "fuel": "unknown", "mw": 0.0, "country": "SRB", "status": "operating"}}, {"type": "Feature", "id": 289, "geometry": {"type": "Point", "coordinates": [22.175, 43.925]}, "properties": {"name": "\u041c\u0430\u043b\u0430 \u0445\u0438\u0434\u0440\u043e\u0435\u043b\u0435\u043a\u0442\u0440\u0430\u043d\u0430 \u0413\u0430\u043c\u0437\u0438\u0433\u0440\u0430\u0434", "fuel": "hydro", "mw": 0.2, "country": "SRB", "status": "operating"}}, {"type": "Feature", "id": 290, "geometry": {"type": "Point", "coordinates": [22.562, 44.317]}, "properties": {"name": "Por\u021bile de Fier II", "fuel": "hydro", "mw": 550.0, "country": "SRB", "status": "operating"}}, {"type": "Feature", "id": 291, "geometry": {"type": "Point", "coordinates": [22.53, 44.671]}, "properties": {"name": "\u0425\u0438\u0434\u0440\u043e\u0435\u043b\u0435\u043a\u0442\u0440\u0430\u043d\u0430 \u0402\u0435\u0440\u0434\u0430\u043f I", "fuel": "hydro", "mw": 2371.8, "country": "", "status": "operating"}}, {"type": "Feature", "id": 292, "geometry": {"type": "Point", "coordinates": [21.674, 42.665]}, "properties": {"name": "Parku Eolik \"Kika\"", "fuel": "wind", "mw": 32.5, "country": "KOS", "status": "operating"}}, {"type": "Feature", "id": 293, "geometry": {"type": "Point", "coordinates": [21.703, 42.553]}, "properties": {"name": "Solar Green Energy", "fuel": "solar", "mw": 3.0, "country": "KOS", "status": "operating"}}, {"type": "Feature", "id": 294, "geometry": {"type": "Point", "coordinates": [21.911, 43.643]}, "properties": {"name": "", "fuel": "hydro", "mw": 0.0, "country": "SRB", "status": "operating"}}, {"type": "Feature", "id": 295, "geometry": {"type": "Point", "coordinates": [21.916, 42.852]}, "properties": {"name": "\u041c\u0430\u043b\u0430 \u0445\u0438\u0434\u0440\u043e\u0435\u043b\u0435\u043a\u0442\u0440\u0430\u043d\u0430 \u0412\u0443\u0447\u0458\u0435", "fuel": "hydro", "mw": 1.0, "country": "SRB", "status": "operating"}}, {"type": "Feature", "id": 296, "geometry": {"type": "Point", "coordinates": [22.015, 43.63]}, "properties": {"name": "", "fuel": "hydro", "mw": 0.0, "country": "SRB", "status": "operating"}}, {"type": "Feature", "id": 297, "geometry": {"type": "Point", "coordinates": [22.067, 43.33]}, "properties": {"name": "MHE Si\u0107evo", "fuel": "hydro", "mw": 1.0, "country": "SRB", "status": "operating"}}, {"type": "Feature", "id": 298, "geometry": {"type": "Point", "coordinates": [22.274, 42.697]}, "properties": {"name": "\u0425\u0438\u0434\u0440\u043e\u0435\u043d\u0435\u0440\u0433\u0435\u0442\u0441\u043a\u0438 \u0441\u0438\u0441\u0442\u0435\u043c \u0412\u043b\u0430\u0441\u0438\u043d\u0430", "fuel": "hydro", "mw": 0.0, "country": "SRB", "status": "operating"}}, {"type": "Feature", "id": 299, "geometry": {"type": "Point", "coordinates": [22.223, 43.285]}, "properties": {"name": "\u041c\u0425\u0415 \u0426\u0440\u0432\u0435\u043d\u0438 \u0411\u0440\u0435\u0433", "fuel": "hydro", "mw": 1.5, "country": "SRB", "status": "operating"}}, {"type": "Feature", "id": 300, "geometry": {"type": "Point", "coordinates": [22.274, 43.236]}, "properties": {"name": "\u041c\u0425\u0415 \u0412\u0440\u0433\u0443\u0434\u0438\u043d\u0430\u0446", "fuel": "hydro", "mw": 1.5, "country": "SRB", "status": "operating"}}, {"type": "Feature", "id": 301, "geometry": {"type": "Point", "coordinates": [22.531, 43.414]}, "properties": {"name": "", "fuel": "hydro", "mw": 0.0, "country": "SRB", "status": "operating"}}, {"type": "Feature", "id": 302, "geometry": {"type": "Point", "coordinates": [22.58, 43.356]}, "properties": {"name": "", "fuel": "unknown", "mw": 0.0, "country": "SRB", "status": "operating"}}, {"type": "Feature", "id": 303, "geometry": {"type": "Point", "coordinates": [22.615, 43.158]}, "properties": {"name": "\u0425\u0415 \u041f\u0438\u0440\u043e\u0442", "fuel": "hydro", "mw": 80.0, "country": "SRB", "status": "operating"}}, {"type": "Feature", "id": 304, "geometry": {"type": "Point", "coordinates": [22.734, 43.467]}, "properties": {"name": "\u0412\u0415\u0426 \"\u041a\u0438\u0442\u043a\u0430\"", "fuel": "hydro", "mw": 5.2, "country": "", "status": "operating"}}, {"type": "Feature", "id": 305, "geometry": {"type": "Point", "coordinates": [22.865, 43.327]}, "properties": {"name": "\u0412\u0415\u0426 \u041c\u0430\u043b\u0438\u043d\u0430", "fuel": "hydro", "mw": 0.0, "country": "", "status": "operating"}}, {"type": "Feature", "id": 306, "geometry": {"type": "Point", "coordinates": [22.598, 43.149]}, "properties": {"name": "\u0408\u041a\u041f \u0413\u0440\u0430\u0434\u0441\u043a\u0430 \u0442\u043e\u043f\u043b\u0430\u043d\u0430 \u041f\u0438\u0440\u043e\u0442", "fuel": "gas", "mw": 0.0, "country": "SRB", "status": "operating"}}, {"type": "Feature", "id": 307, "geometry": {"type": "Point", "coordinates": [22.742, 43.48]}, "properties": {"name": "\u0412\u0415\u0426 \"\u0413\u043e\u0440\u043d\u0438 \u041b\u043e\u043c\"", "fuel": "hydro", "mw": 1.4, "country": "", "status": "operating"}}, {"type": "Feature", "id": 308, "geometry": {"type": "Point", "coordinates": [22.287, 42.672]}, "properties": {"name": "\u0425\u0415 \u0412\u0440\u043b\u0430 1", "fuel": "hydro", "mw": 50.7, "country": "SRB", "status": "operating"}}, {"type": "Feature", "id": 309, "geometry": {"type": "Point", "coordinates": [22.069, 42.676]}, "properties": {"name": "\u0425\u0415 \u0412\u0440\u043b\u0430 4", "fuel": "hydro", "mw": 24.8, "country": "SRB", "status": "operating"}}, {"type": "Feature", "id": 310, "geometry": {"type": "Point", "coordinates": [21.913, 43.314]}, "properties": {"name": "\u0422\u043e\u043f\u043b\u043e\u0442\u043d\u0438 \u0438\u0437\u0432\u043e\u0440 \u0423\u041a\u0426 - \u041d\u0438\u0448", "fuel": "unknown", "mw": 0.0, "country": "SRB", "status": "operating"}}, {"type": "Feature", "id": 311, "geometry": {"type": "Point", "coordinates": [22.249, 42.689]}, "properties": {"name": "\u0425\u0415 \u0412\u0440\u043b\u0430 2", "fuel": "hydro", "mw": 24.0, "country": "SRB", "status": "operating"}}, {"type": "Feature", "id": 312, "geometry": {"type": "Point", "coordinates": [22.581, 43.287]}, "properties": {"name": "HE Temska", "fuel": "hydro", "mw": 0.0, "country": "SRB", "status": "operating"}}, {"type": "Feature", "id": 313, "geometry": {"type": "Point", "coordinates": [22.122, 43.334]}, "properties": {"name": "HE Sveta Petka", "fuel": "hydro", "mw": 0.4, "country": "SRB", "status": "operating"}}, {"type": "Feature", "id": 314, "geometry": {"type": "Point", "coordinates": [22.074, 42.509]}, "properties": {"name": "MHE Prvonek", "fuel": "hydro", "mw": 0.9, "country": "SRB", "status": "operating"}}, {"type": "Feature", "id": 315, "geometry": {"type": "Point", "coordinates": [21.708, 43.518]}, "properties": {"name": "Solarna elektrana Aleksinac", "fuel": "solar", "mw": 16.0, "country": "SRB", "status": "operating"}}, {"type": "Feature", "id": 316, "geometry": {"type": "Point", "coordinates": [22.223, 41.37]}, "properties": {"name": "XE \u0414\u043e\u0448\u043d\u0438\u0446\u0430", "fuel": "hydro", "mw": 5.1, "country": "MKD", "status": "operating"}}, {"type": "Feature", "id": 317, "geometry": {"type": "Point", "coordinates": [21.936, 41.405]}, "properties": {"name": "\u0425\u0415\u0426 \u0422\u0438\u043a\u0432\u0435\u0448", "fuel": "hydro", "mw": 113.0, "country": "MKD", "status": "operating"}}, {"type": "Feature", "id": 318, "geometry": {"type": "Point", "coordinates": [22.16, 41.458]}, "properties": {"name": "\u0422\u0415\u0426 \u041d\u0435\u0433\u043e\u0442\u0438\u043d\u043e", "fuel": "oil", "mw": 195.0, "country": "MKD", "status": "operating"}}, {"type": "Feature", "id": 319, "geometry": {"type": "Point", "coordinates": [22.578, 41.971]}, "properties": {"name": "XE \u041a\u0430\u043b\u0438\u043c\u0430\u043d\u0446\u0438", "fuel": "hydro", "mw": 13.8, "country": "MKD", "status": "operating"}}, {"type": "Feature", "id": 320, "geometry": {"type": "Point", "coordinates": [22.602, 42.012]}, "properties": {"name": "", "fuel": "solar", "mw": 0.0, "country": "MKD", "status": "operating"}}, {"type": "Feature", "id": 321, "geometry": {"type": "Point", "coordinates": [22.897, 41.386]}, "properties": {"name": "", "fuel": "solar", "mw": 0.0, "country": "MKD", "status": "operating"}}, {"type": "Feature", "id": 322, "geometry": {"type": "Point", "coordinates": [22.154, 41.461]}, "properties": {"name": "", "fuel": "solar", "mw": 0.0, "country": "MKD", "status": "operating"}}, {"type": "Feature", "id": 323, "geometry": {"type": "Point", "coordinates": [22.834, 41.726]}, "properties": {"name": "", "fuel": "solar", "mw": 0.0, "country": "MKD", "status": "operating"}}, {"type": "Feature", "id": 324, "geometry": {"type": "Point", "coordinates": [22.841, 41.428]}, "properties": {"name": "", "fuel": "solar", "mw": 0.0, "country": "MKD", "status": "operating"}}, {"type": "Feature", "id": 325, "geometry": {"type": "Point", "coordinates": [22.59, 41.103]}, "properties": {"name": "", "fuel": "solar", "mw": 0.0, "country": "", "status": "operating"}}, {"type": "Feature", "id": 326, "geometry": {"type": "Point", "coordinates": [22.67, 41.14]}, "properties": {"name": "", "fuel": "solar", "mw": 0.0, "country": "", "status": "operating"}}, {"type": "Feature", "id": 327, "geometry": {"type": "Point", "coordinates": [22.904, 41.284]}, "properties": {"name": "", "fuel": "solar", "mw": 0.0, "country": "", "status": "operating"}}, {"type": "Feature", "id": 328, "geometry": {"type": "Point", "coordinates": [22.892, 41.293]}, "properties": {"name": "", "fuel": "solar", "mw": 0.0, "country": "", "status": "operating"}}, {"type": "Feature", "id": 329, "geometry": {"type": "Point", "coordinates": [22.784, 41.266]}, "properties": {"name": "", "fuel": "solar", "mw": 0.0, "country": "", "status": "operating"}}]}